[
{
  "model": "data_explorer_example.author",
  "pk": 1,
  "fields": {
    "name": "Shakespeare",
    "birth_date": "1564-04-01"
  }
},
{
  "model": "data_explorer_example.author",
  "pk": 2,
  "fields": {
    "name": "Carlos Ruiz Zaf\u00f3n",
    "birth_date": "1964-09-25"
  }
},
{
  "model": "data_explorer_example.author",
  "pk": 3,
  "fields": {
    "name": "Joseph Conrad",
    "birth_date": "1857-12-03"
  }
},
{
  "model": "data_explorer_example.author",
  "pk": 4,
  "fields": {
    "name": "Robert C. Martin",
    "birth_date": "1952-01-01"
  }
},
{
  "model": "data_explorer_example.author",
  "pk": 5,
  "fields": {
    "name": "Stanis\u0142aw Lem",
    "birth_date": "1921-09-12"
  }
},
{
  "model": "data_explorer_example.author",
  "pk": 6,
  "fields": {
    "name": "J. R. R. Tolkien",
    "birth_date": "1892-01-03"
  }
},
{
  "model": "data_explorer_example.author",
  "pk": 7,
  "fields": {
    "name": "George R. R. Martin",
    "birth_date": "1948-09-20"
  }
},
{
  "model": "data_explorer_example.author",
  "pk": 8,
  "fields": {
    "name": "C. S. Lewis",
    "birth_date": "1898-10-29"
  }
},
{
  "model": "data_explorer_example.author",
  "pk": 9,
  "fields": {
    "name": "Jaros\u0142aw Grz\u0119dowicz",
    "birth_date": "1965-05-03"
  }
},
{
  "model": "data_explorer_example.author",
  "pk": 10,
  "fields": {
    "name": "Andrzej Sapkowski",
    "birth_date": "1948-06-21"
  }
},
{
  "model": "data_explorer_example.author",
  "pk": 11,
  "fields": {
    "name": "Umberto Eco",
    "birth_date": "1932-01-05"
  }
},
{
  "model": "data_explorer_example.book",
  "pk": 1,
  "fields": {
    "author": 2,
    "title": "The Shadow of the Wind",
    "pages": 565,
    "publication_date": "2000-01-01T12:00:00Z"
  }
},
{
  "model": "data_explorer_example.city",
  "pk": 1,
  "fields": {
    "name": "Warsaw",
    "citizens_number": "1800000",
    "latitude": "52.229700",
    "longitude": "21.012200"
  }
},
{
  "model": "data_explorer_example.city",
  "pk": 2,
  "fields": {
    "name": "Berlin",
    "citizens_number": "3500000",
    "latitude": "52.520000",
    "longitude": "13.405000"
  }
},
{
  "model": "data_explorer_example.city",
  "pk": 3,
  "fields": {
    "name": "Tel Aviv",
    "citizens_number": "411800",
    "latitude": "32.085300",
    "longitude": "34.781800"
  }
},
{
  "model": "data_explorer_example.city",
  "pk": 4,
  "fields": {
    "name": "Prague",
    "citizens_number": "1247000",
    "latitude": "50.075500",
    "longitude": "14.437800"
  }
},
{
  "model": "data_explorer_example.city",
  "pk": 5,
  "fields": {
    "name": "Tallinn",
    "citizens_number": "407947",
    "latitude": "59.437000",
    "longitude": "24.753600"
  }
},
{
  "model": "data_explorer_example.city",
  "pk": 6,
  "fields": {
    "name": "Krak\u00f3w",
    "citizens_number": "244970",
    "latitude": "50.044000",
    "longitude": "20.005900"
  }
},
{
  "model": "data_explorer_example.city",
  "pk": 7,
  "fields": {
    "name": "Bonn",
    "citizens_number": "309869",
    "latitude": "50.737400",
    "longitude": "7.098200"
  }
},
{
  "model": "data_explorer_example.city",
  "pk": 8,
  "fields": {
    "name": "Paris",
    "citizens_number": "2244000",
    "latitude": "48.856600",
    "longitude": "2.352200"
  }
}
]
